[{"latitude":"6.433363","longitude":"79.997874","name":"Aluthgama KAD BDM 01","address":"No 303, Galle Road, Aluthgama"},{"latitude":"6.940342","longitude":"79.862536","name":"Aluthkade SEETECH BDM 01","address":"No 31,33,35, Quarry Rd, Colombo 12 "},{"latitude":"6.237334","longitude":"80.054433","name":"Ambalangoda SEETECH BDM 01","address":"No 94\/1, New Road, Ambalangoda"},{"latitude":"8.341154","longitude":"80.411433","name":"Anuradhapura BNA 01","address":"No 30, Mithripala Senanayake Mw, Anuradhapura"},{"latitude":"8.341154","longitude":"80.411433","name":"Anuradhapura SEETECH BDM 01","address":"No 30, Mithripala Senanayake Mw, Anuradhapura"},{"latitude":"6.8948","longitude":"79.8803","name":"Asiri Surgical BNA 01","address":"No 21, Kirimandala Mawatha, Colombo 05"},{"latitude":"6.88653","longitude":"79.857881","name":"Bambalapitiya SEETECH BDM 01","address":"No 285, Galle Road, Colombo 04"},{"latitude":"6.71496","longitude":"79.989291","name":"Bandaragama BNA 01","address":"No 17B, Horana Road, Bandaragama"},{"latitude":"7.724952","longitude":"81.691083","name":"Batticaloa SEETECH BDM 01","address":"No 120-22, Bazaar Street, Batticaloa"},{"latitude":"7.263686","longitude":"79.858315","name":"Chilaw SEETECH BDM 01","address":"No 105, Colombo Road, Chilaw"},{"latitude":"6.9127992","longitude":"79.8733146","name":"Cinnamon Gardens Recycler 01","address":"No 85A,87, Barnes Place, Colombo 07"},{"latitude":"6.934905","longitude":"79.842651","name":"City Office SEETECH BDM 01","address":"No 16, Janadhipathi Mw, Colombo 01"},{"latitude":"6.853244","longitude":"79.86558","name":"Dehiwela SEETECH BDM 01","address":"No 196, Galle Road, Dehiwala"},{"latitude":"6.929178","longitude":"79.878214","name":"Dematagoda KAD BDM 01\u00a0\u00a0 ","address":"No 284, Baseline Road, Colombo 09"},{"latitude":"6.033497","longitude":"80.216692","name":"Galle SEETECH BDM 01","address":"No 3, Wakwella Road, Galle"},{"latitude":"7.091065","longitude":"79.997208","name":"Gampaha SEETECH BDM 01","address":"No 148, Colombo Road, Gampaha"},{"latitude":"7.164896","longitude":"80.569445","name":"Gampola OFFSITE BNA 01","address":"No 55, Malabar Street, Gampola"},{"latitude":"7.165821","longitude":"80.571831","name":"Gampola SEETECH BDM 01","address":"No 142, Kandy Rd, Gampola"},{"latitude":"6.950303","longitude":"79.874111","name":"Grandpass SEETECH BDM 01","address":"No 182, St Joseph's Street, Colombo 14"},{"latitude":"6.892914","longitude":"80.597186","name":"Hatton BNA 01","address":"No 171 1\/1, Dimbula Road, DKW Commercial Complex, Hatton"},{"latitude":"6.9209","longitude":"79.862633","name":"Head Office Lobby CHQ 01","address":"No 479, T B Jayah Mw, Colombo 10"},{"latitude":"6.9209","longitude":"79.862633","name":"Head Office Recycler 01","address":"No 479, T B Jayah Mw, Colombo 10 "},{"latitude":"6.713905","longitude":"80.063502","name":"Horana KAD BDM 01","address":"No 153, Anguruwathota Road, Horana"},{"latitude":"7.082271","longitude":"79.891724","name":"Ja-Ela BNA 01","address":"No 73, Old Negombo Road, Kanuwana, Ja-Ela"},{"latitude":"7.082287","longitude":"79.891734","name":"Ja-Ela SEETECH BDM 01","address":"No 73, Old Negombo Road, Kanuwana, Ja-Ela"},{"latitude":"9.667495","longitude":"80.01241","name":"Jaffna Metro SEETECH BDM 03","address":"No 177, 179, Ponnambalam Road, Jaffna**"},{"latitude":"9.744014","longitude":"80.027158","name":"Jaffna Metro KAD BDM 01","address":"No 177, 179, Ponnambalam Road, Jaffna**"},{"latitude":"7.001814","longitude":"79.950806","name":"Kadawatha SEETECH BDM 01","address":"Weerasekera building, No 335, 357\/1, Kandy Road, Kadawatha"},{"latitude":"6.936973","longitude":"79.981415","name":"Kaduwela BNA 01","address":"No 496\/A, Avissawella Road, Kaduwela"},{"latitude":"6.582237","longitude":"80.573335","name":"Kahawatta SEETECH BDM 01","address":"No 772A, Main Street Kahawatta"},{"latitude":"7.292779","longitude":"80.636655","name":"Kandy City Centre\u00a0SEETECH BDM 01","address":"L1-16, No 5, Dalada Veediya, Kandy"},{"latitude":"7.253444","longitude":"80.346408","name":"Kegalle SEETECH BDM 01","address":"No 233, Kandy Rd, Kegalle"},{"latitude":"6.953274","longitude":"79.918799","name":"Kelaniya SEETECH BDM 01","address":"Rajamaha Vihara Junction, Biyagama Road, Kelaniya"},{"latitude":"9.406272","longitude":"80.407821","name":"Kilinochchi South SEETECH BDM 01","address":"Kanagapuram Road, Kilinochchi"},{"latitude":"6.977328","longitude":"79.929339","name":"Kiribathgoda Recycler 02","address":"No 141, Kandy Road, Kiribathgoda"},{"latitude":"6.977328","longitude":"79.929339","name":"Kiribathgoda KAD BDM 01","address":"No 141, Kandy Road, Kiribathgoda"},{"latitude":"6.907865","longitude":"79.850903","name":"Kollupitiya Recycler 01","address":"No. 324, Galle Road, Colombo 03"},{"latitude":"6.907865","longitude":"79.850903","name":"Kollupitiya SEETECH BDM 01","address":"No. 324, Galle Road, Colombo 03"},{"latitude":"6.932477","longitude":"79.891138","name":"Kolonnawa SEETECH BDM 01","address":"166, Kolonnawa Road, Kolonnawa"},{"latitude":"6.946509","longitude":"79.85819","name":"Kotahena SEETECH BDM 02","address":"No 280, George R De Silva Mw, Colombo 13"},{"latitude":"6.889248","longitude":"79.902948","name":"Kotte BNA 01","address":"No 1424, Kotte Road, Rajagiriya"},{"latitude":"6.889248","longitude":"79.902948","name":"Kotte SEETECH BDM 01","address":"No 1424, Kotte Road, Rajagiriya"},{"latitude":"7.468667","longitude":"80.0386","name":"Kuliyapitiya SEETECH BDM 01","address":"No 225, Main Street, Kuliyapitiya"},{"latitude":"7.495295","longitude":"80.368717","name":"Kurunegala Recycler 01","address":"No 06, St Anne's Road, Kurunegala"},{"latitude":"6.838664","longitude":"79.919899","name":"Maharagama SEETECH BDM 01","address":"145, Colombo Road, Maharagama"},{"latitude":"8.764546","longitude":"80.489032","name":"Mannar BNA 01","address":"No 68, Main Street, Mannar"},{"latitude":"7.47186","longitude":"80.623056","name":"Matale SEETECH BDM 01","address":"No 104, King Street, Matale"},{"latitude":"5.949964","longitude":"80.54746","name":"Matara SEETECH BDM 01","address":"No 58D, Esplanade Road, Matara"},{"latitude":"6.871021","longitude":"81.349659","name":"Monaragala SEETECH BDM 01","address":"No 131, Wellawaya Rd, Monaragala"},{"latitude":"6.969988","longitude":"79.872928","name":"Muttuwal SEETECH BDM 01","address":"No 523, Ferguson Road, Colombo 15"},{"latitude":"6.886454","longitude":"79.886962","name":"Narahenpita KAD BDM 01","address":"No 209A, Kirula Road, Narahenpita "},{"latitude":"6.88644","longitude":"79.886976","name":"Nawala SEETECH BDM 01","address":"279A, Nawala Road, Nawala"},{"latitude":"6.920877","longitude":"79.853246","name":"Nawaloka Hospital Recycler 01","address":"No 23, Sri Sugathodaya Mw, Colombo 02"},{"latitude":"6.919098","longitude":"79.850014","name":"Nawam Mawatha C_BNA 01","address":"46\/38, Forbes & Walkers Building, Nawam Mw, Colombo 02"},{"latitude":"7.056548","longitude":"80.535261","name":"Nawalapitiya BNA 01","address":"No 68, Gampola Road, Nawalapitiya"},{"latitude":"7.20764","longitude":"79.850727","name":"Negombo BNA 01","address":"No 18, Rajapaksa Broadway, Negombo"},{"latitude":"7.20548","longitude":"79.841033","name":"Negombo Metro SEETECH BDM 01","address":"201, Colombo Road, Negombo"},{"latitude":"7.207647","longitude":"79.850744","name":"Negombo SEETECH BDM 01","address":"No 18, Rajapaksa Broadway, Negombo"},{"latitude":"6.876902","longitude":"79.900519","name":"Nugegoda Recycler 01","address":"No 181, High Level Road, Nugegoda"},{"latitude":"6.876902","longitude":"79.900519","name":"Nugegoda SEETECH BDM 01","address":"No 181, High Level Road, Nugegoda"},{"latitude":"6.972172","longitude":"80.766227","name":"Nuwara Eliya\u00a0SEETECH BDM 01","address":"No 42, Queen Elizabeth Drive, Nuwara Eliya"},{"latitude":"6.877417","longitude":"79.869525","name":"Pamankada KAD BDM 01","address":"No 455 - 477, Havelock Road, Colombo 06"},{"latitude":"6.714435","longitude":"79.907246","name":"Panadura KAD BDM 01","address":"No 402,404, Galle Road, Panadura"},{"latitude":"6.932771","longitude":"79.865739","name":"Panchikawatta KAD BDM 02","address":"No 168, Panchikawatta Road, Colombo 10"},{"latitude":"7.279056","longitude":"80.617679","name":"Peradeniya KAD BDM 01","address":"No 618 & 620, Peradeniya Rd, Mulgampola, Kandy"},{"latitude":"6.937841","longitude":"79.851266","name":"Pettah BNA 01","address":"No 149-151, Main Street, Colombo 11"},{"latitude":"6.937841","longitude":"79.851266","name":"Pettah SEETECH BDM 01","address":"No 149-151, Main Street, Colombo 11"},{"latitude":"6.801101","longitude":"79.92153","name":"Piliyandala BNA 01","address":"No 63, Moratuwa Road, Piliyandala"},{"latitude":"6.801101","longitude":"79.92153","name":"Piliyandala SEETECH BDM 01","address":"No 63, Moratuwa Road, Piliyandala"},{"latitude":"7.94247","longitude":"81.009717","name":"Polonnaruwa SEETECH BDM 01","address":"No 467, Main Street, Kaduruwela, Polonnaruwa"},{"latitude":"6.809219","longitude":"79.882908","name":"Ratmalana KAD BDM 01","address":"No 779, Galle Road, Kaldemulla, Ratmalana"},{"latitude":"6.67881","longitude":"80.40528","name":"Ratnapura Recycler 01","address":"No 9, Senanayake Mw, Ratnapura"},{"latitude":"6.67881","longitude":"80.40528","name":"Ratnapura SEETECH BDM 01","address":"No 9, Senanayake Mw, Ratnapura"},{"latitude":"6.940248","longitude":"79.854112","name":"Sea Street C_BNA 01","address":"No 60, Sea Street, Colombo 11"},{"latitude":"5.943691","longitude":"80.461769","name":"Mirissa Offsite BNA 01","address":"Salamanage Watta, Bandaramulla, Mirissa"},{"latitude":"6.891387","longitude":"79.86277","name":"Thimbirigasyaya KAD BDM 01","address":"No 138B, Havelock Road, Colombo 05"},{"latitude":"6.930139","longitude":"79.861914","name":"Trace City KAD BDM 01","address":"Trace City, Maradana, Colombo 10"},{"latitude":"6.930139","longitude":"79.861914","name":"Trace City Recycler 01","address":"Maradana, Colombo 10"},{"latitude":"8.578328","longitude":"81.233617","name":"Trincomalee SEETECH BDM 01","address":"No 59, Ehamparam Road,Trincomalee"},{"latitude":"8.760335","longitude":"80.499736","name":"Vavuniya SEETECH BDM 01","address":"No 43, Inner Circular Road, Vavuniya"},{"latitude":"6.983136","longitude":"79.888839","name":"Wattala SEETECH BDM 01","address":"No 270, 270\/1, Negombo Road, Wattala"},{"latitude":"6.875046","longitude":"79.860794","name":"Wellawatte Recycler 01","address":"No 100, 102, Galle Road, Colombo 06"},{"latitude":"6.875046","longitude":"79.860794","name":"Wellawatte KAD BDM 01","address":"No 100, 102, Galle Road, Colombo 06"},{"latitude":"6.875046","longitude":"79.860794","name":"Wellawatte SEETECH BDM 03","address":"No 100, 102, Galle Road, Colombo 06"},{"latitude":"7.344488","longitude":"79.840679","name":"Wennappuwa SEETECH BDM 01","address":"No 39, Chillaw Road, Wennappuwa"},{"latitude":"6.849678","longitude":"79.923242","name":"Wijerama KAD BDM 02","address":"No 594, High Level Road, Wijerama, Nugegoda"},{"latitude":"6.940248","longitude":"79.854112","name":"Sea Street BDM 01","address":"No 60, Sea Street, Colombo 11"},{"latitude":"6.936973","longitude":"79.981415","name":"Kaduwela BDM 01","address":"No 496\/A, Avissawella Road, Kaduwela"},{"latitude":"7.030215","longitude":"79.921785","name":"Ragama BDM 01","address":"No 60-64, Thewatta Road, Ragama"},{"latitude":"7.144454","longitude":"80.095956","name":"Nittambuwa BDM 01","address":"No 22, Kandy Road, Nittambuwa"},{"latitude":"7.049547","longitude":"79.89674","name":"Kandana BDM 01","address":"No 52, Negombo Road, Kandana"},{"latitude":"7.169437","longitude":"79.9476","name":"Minuwangoda BDM 01","address":"No 41, Samarakkodi Mawatha, Minuwangoda"},{"latitude":"7.263688","longitude":"79.858321","name":"Kochchikade BDM 01","address":"No 42, 42\/1, Chillaw Road, Kochchikade"},{"latitude":"7.297063","longitude":"79.884603","name":"Dankotuwa BDM 01","address":"No 114, Pannala Road, Dankotuwa"},{"latitude":"7.413795","longitude":"79.830925","name":"Marawila BDM 01","address":"No 534, Colombo Road, Marawila"},{"latitude":"9.6893","longitude":"80.027997","name":"Thirunelvely BDM 01","address":"No.5&7, Adiyapatham Rd, Thirunelweli"},{"latitude":"8.027798","longitude":"79.830552","name":"Puttalam BDM 01","address":"No 06, Kachcheri Road, Puttalam"},{"latitude":"9.720313","longitude":"79.996755","name":"Manipay BDM 01","address":"Prem Plaza, No 171, Jaffna Road, Manipay"},{"latitude":"6.3322","longitude":"80.855491","name":"Embilipitiya BDM 01","address":"Sarathchandra Building, Main Street, Embilipitiya"},{"latitude":"6.713829","longitude":"80.063429","name":"Horana BDM 01","address":"No 153, Anguruwathota Road, Horana"},{"latitude":"6.986607","longitude":"81.058557","name":"Badulla BDM 01","address":"No 15, 15 1\/1, Udaya Raja Mw, Badulla"},{"latitude":"6.829848","longitude":"80.992067","name":"Bandarawela BDM 01","address":"No 70, Dharmavijaya Mawatha, Bandarawela"},{"latitude":"6.875046","longitude":"79.860794","name":"Wellawatte SEETECH BDM 04","address":"No 100, 102, Galle Road, Colombo 06"},{"latitude":"6.934555","longitude":"79.859024","name":"Hulftsdorp BDM 01","address":"No 151, Mihindu Mw, Colombo 12"},{"latitude":"6.9127992","longitude":"79.8733146","name":"Barnes Place BDM 01","address":"No 85A,87, Barnes Place, Colombo 07"},{"latitude":"6.936989","longitude":"79.85005","name":"Pettah Metro BDM 01","address":"Main Street, Colombo 11"},{"latitude":"6.842178","longitude":"79.963313","name":"Kottawa BDM 01","address":"No 40, High Level Road, Kottawa"},{"latitude":"6.84173","longitude":"80.004838","name":"Homagama BDM 01","address":"No 71, High Level Road, Homagama"},{"latitude":"6.868381","longitude":"79.883867","name":"Kohuwela BDM 01","address":"No 179, Dutugemunu Street, Kohuwala"},{"latitude":"6.903368","longitude":"79.95721","name":"Malabe BDM 01","address":"No 395\/2, New Kandy Road, Malabe"},{"latitude":"6.809263","longitude":"79.882994","name":"Moratuwa BDM 01","address":"No 143\/1, New Galle Road, Moratuwa"},{"latitude":"7.87796","longitude":"80.650695","name":"Dambulla BDM 01","address":"No 700\/B, Anuradhapura Road, Dambulla"},{"latitude":"9.257611","longitude":"80.143056","name":"Mulankavil Recycler 01","address":"No 488, Kariyalai Nagapaduvan, Nachchikkuda Junction, Mulangavil, Kilinochchi"},{"latitude":"6.801101","longitude":"79.92153","name":"Piliyandala Recycler 01","address":"No 63, Moratuwa Road, Piliyandala"},{"latitude":"6.972335","longitude":"80.766135","name":"Nuwara Eliya VP CCBNA Recycler 01","address":"Victoria Park, Nuwara Eliya "},{"latitude":"6.87506","longitude":"79.860787","name":"IFS Wellawatte Recycler 01","address":"IFS, No 487, Galle Road, Wellawatte "},{"latitude":"6.914965","longitude":"79.972125","name":"Weliwita Junction Recycler 01","address":"No 162\/E, New Kandy Road, Weliwita Junction, Malabe"},{"latitude":"6.977325","longitude":"79.92934","name":"Udeshi City Recycler 01","address":"Udeshi City Super Market, Kiribathgoda"},{"latitude":"7.021594","longitude":"79.899354","name":"Thilakma Mahabage Recycler 01","address":"Thilakma Super City, Mahabage, Wattala"},{"latitude":"6.889625","longitude":"79.903348","name":"Solis Pitakotte Recycler 01","address":"Kotte Road, Pitakotte"},{"latitude":"6.832668","longitude":"79.867596","name":"Mount Lavinia Recycler 01","address":"No 605, Galle Road, Mount Lavinia"},{"latitude":"6.85929","longitude":"80.091402","name":"Meepe City Recycler 01","address":"Meepe Junction, Meepe"},{"latitude":"6.967438","longitude":"79.965253","name":"Mawaramadiya Recycler 01","address":"No 454, Mawaramandiya, Siyambalape"},{"latitude":"6.894176","longitude":"79.855046","name":"Majestic City Recycler 01","address":"Majestic City, Colombo 04"},{"latitude":"7.29836","longitude":"80.734896","name":"Kandy Recycler 01","address":"No 1, Dalada Weediya, Kandy"},{"latitude":"6.873188","longitude":"79.866414","name":"Hampden Lane Recycler 01","address":"No 93, Hampdon Lane, Wellawatte, Colombo 06"},{"latitude":"7.09282","longitude":"79.994691","name":"Gampaha Mangala Road Recycler 01","address":"Mangala Road, Gampaha"},{"latitude":"6.996487","longitude":"79.917657","name":"Enderamulla Recycler 01","address":"No 264, Enderamulla, Wattala"},{"latitude":"7.032168","longitude":"80.028508","name":"Weliweriya BDM 01","address":"No 109\/5, New Kandy Road, Weliweriya"},{"latitude":"6.277652","longitude":"81.286489","name":"Tissamaharama BDM 01","address":"No 118, Hambantota Road, Tissamaharama"},{"latitude":"6.87568","longitude":"79.936006","name":"Thalawathugoda BDM 01","address":"No 715, Pannipitiya Road, Thalawathugoda"},{"latitude":"6.977329","longitude":"79.929297","name":"Thalangama BDM 01","address":"No 253, Kaduwela Road, Koswatte, Thalangama"},{"latitude":"6.809219","longitude":"79.882908","name":"Ratmalana BDM 01","address":"779, Galle Road Kaldemulla, Ratmalana"},{"latitude":"6.932771","longitude":"79.865739","name":"Panchikawatta BDM 01","address":"No 168, Panchikawatta Road, Colombo 10"},{"latitude":"6.714435","longitude":"79.907246","name":"Panadura BDM 01","address":"No 402,404, Galle Road, Panadura"},{"latitude":"6.886454","longitude":"79.886962","name":"Narahenpita BDM 01","address":"No 209A, Kirula Road, Narahenpita "},{"latitude":"6.923497","longitude":"79.868869","name":"Maradana BDM 01","address":"No 696, Maradana Road , Colombo 10"},{"latitude":"6.907865","longitude":"79.850903","name":"Kollupitiya BDM 02","address":"No. 324, Galle Road, Colombo 03"},{"latitude":"7.042739","longitude":"80.129684","name":"Kirindiwela BDM 01","address":"No 71, Gampaha Road, Kirindiwela"},{"latitude":"6.572347","longitude":"79.964925","name":"Kalutara BDM 01","address":"No 417, Galle Road, Kaluthara South"},{"latitude":"6.896213","longitude":"80.873947","name":"Keppetipola Economic Centre BDM 01","address":"Keppetipola Economic Centre, Nuwara Eliya Road, Keppetipola"},{"latitude":"6.902909","longitude":"79.850986","name":"IBU 01","address":"No 502\/1A, Kollupitiya Road, Colombo 03"},{"latitude":"6.9869885","longitude":"80.0127298","name":"Delgoda BDM 01","address":"348\/7, New Kandy Road, Delgoda\u00a0"},{"latitude":"7.278734","longitude":"80.618442","name":"Keells Peradeniya Recycler 01","address":"Keells Super, No 136, Udaha Walawwa, Elkaduwa, Peradeniya"},{"latitude":"7.914642","longitude":"81.522737","name":"Oddamavadi CRM 01","address":"Main Street, Oddamavadi"},{"latitude":"6.829844","longitude":"80.992066","name":"Ella BDM 01","address":"No 10, Main Street, Ella"},{"latitude":"6.876328","longitude":"79.99086","name":"Athurugiriya BDM 01","address":"No 46, Main Street, Athurugiriya"},{"latitude":"6.8863815","longitude":"79.877096","name":"Institute of Personal Management (IPM) BDM 01","address":"Institute of Personal Management (IPM), HR House, No 43, Vijaya Kumaranathunga Mawatha, Narahenpita, Colombo 05"},{"latitude":"5.972896","longitude":"80.429249","name":"Weligama BDM 01","address":"No 354\/53, Matara Road, Weligama"},{"latitude":"6.650003","longitude":"80.698243","name":"Balangoda BDM 02","address":"No 70 A\/1, Barnes Ratwatte Mawatha, Balangoda"},{"latitude":"7.488387","longitude":"80.362155","name":"Kurunegala Metro BDM 01","address":"No 126, Colombo Road, Kurunegala"},{"latitude":"6.905251","longitude":"80.911009","name":"Welimada BDM 01","address":"No 35, Nuwara Eliya Road, Welimada"},{"latitude":"9.668932","longitude":"80.012599","name":"Jaffna BDM 02","address":"No 212, 214, Hospital Road, Jaffna"},{"latitude":"7.218872","longitude":"81.849905","name":"Akkareipattu BDM 01","address":"No 14, Main Street, Akkareipattu"},{"latitude":"7.131675","longitude":"79.87596","name":"Seeduwa BDM 01","address":"No 465, Negombo Road, Seeduwa"},{"latitude":"6.345467","longitude":"80.559511","name":"Deniyaya BDM 01","address":"No 99, Main Street, Deniyaya"},{"latitude":"6.876716","longitude":"79.900566","name":"Mirihana BDM 01","address":"No 295B, Jubilee Post, Mirihana, Nugegoda"},{"latitude":"6.903265","longitude":"79.900326","name":"Gateway College BDM 01","address":"No 185, Koswatte, Rajagiriya"},{"latitude":"8.981245","longitude":"79.911682","name":"Mannar CRM 01","address":"No 68, Main Street, Mannar"},{"latitude":"6.910213","longitude":"79.851949","name":"R A De Mel Mawatha BDM 01","address":"R A De Mel Mawatha, Colombo 03"},{"latitude":"6.910213","longitude":"79.851949","name":"R A De Mel Mawatha CRM 01","address":"R A De Mel Mawatha, Colombo 03"},{"latitude":"8.0395835","longitude":"80.7556476","name":"Habarana Junction CRM 01","address":"Habarana Junction, Habarana"},{"latitude":"6.6798496","longitude":"80.3993675","name":"Ratnapura Kawithas CRM 01","address":"Kawithas Stores, No. 50, Pulungupitiya, Ratnapura"},{"latitude":"6.47706","longitude":"79.986701","name":"Patte Kade CRM 01","address":"No. 44\/2, Sheik Fassy Mawatha, China Fort, Patte Kade, Beruwala"},{"latitude":"7.292779","longitude":"80.636655","name":"Kandy City Centre CRM 01","address":"L1-16, No.5, Dalada Veediya, Kandy"},{"latitude":"6.941169","longitude":"80.743898","name":"Nanuoya CRM 01","address":"Nanuoya Railway, Main Street, Nanuoya"},{"latitude":"7.033888","longitude":"79.988722","name":"Imbulgoda Classic Lanka 01","address":"95\/2, Kandy Road, Imbulgoda"},{"latitude":"8.492035","longitude":"80.200485","name":"Wilachchiya CRM 01","address":"Dilshan Restaurant, Pemaduwa, Wilachchiya"},{"latitude":"6.830129","longitude":"80.988827","name":"Bandarawela Bus Stand CRM 01","address":"Bandarawela Bus Stand"},{"latitude":"6.867727","longitude":"79.87658","name":"Kalubowila Hos CRM 01","address":"Kalubowila, Dehiwala"},{"latitude":"6.622202","longitude":"80.543724","name":"Chandra Food City CRM 01","address":"No. 40, Rakwana Road, Pelmadulla"},{"latitude":"7.8875775","longitude":"79.8173554","name":"Madurankuliya CRM 01","address":"10th Mile Post, Pubudugama, Madurankuliya"},{"latitude":"6.572922","longitude":"79.964717","name":"Dharga Town CRM 01","address":"No.409, Mathugama Road , Dharga Town"},{"latitude":"8.599474","longitude":"81.218568","name":"Trincomalee Metro CRM 01","address":"No.271, Court Road, Trincomalee"},{"latitude":"6.88124","longitude":"79.916111","name":"Madiwela CRM 01","address":"Frion Enterprises, Madiwela"},{"latitude":"6.841","longitude":"79.902402","name":"Boralesgamuwa CRM 02","address":"No.24, Maharagama Road, Boralesgamuwa"},{"latitude":"7.943205","longitude":"81.009551","name":"Polonnaruwa Gen Hos CRM 01","address":"General Hospital, Polonnaruwa"},{"latitude":"7.207476","longitude":"79.850468","name":"Negombo Bus Stand CRM 01","address":"Central Bus Stand\u00b8 Negombo"},{"latitude":"6.907865","longitude":"79.850903","name":"Kollupitiya Seetech BDM 02","address":"No. 324, Galle Road, Colombo 03"},{"latitude":"7.618845","longitude":"80.247183","name":"Wariyapola BDM 01","address":"No.65, Kurunegala Road , Wariyapola"},{"latitude":"8.321825","longitude":"80.402059","name":"Anuradhapura Metro BDM 01","address":"No.521\/21, New Town, Anuradhapura"},{"latitude":"8.2641347","longitude":"80.211367","name":"Nochchiyagama BDM 01","address":"No.10, Puttalam Road, Nochchiyagama"},{"latitude":"8.157821","longitude":"80.2982709","name":"Thambuttegama BDM 01","address":"No.255\/A, Kurunegala Rd, Thambuttegama"},{"latitude":"6.908855","longitude":"80.08068","name":"Hanwella BDM 01","address":"No.26\/1, Dissagewatte, Hanwella"},{"latitude":"6.961653","longitude":"80.010244","name":"Biyagama BDM 01","address":"No.549\/9, Walgama, Malwana"},{"latitude":"6.880433","longitude":"79.876562","name":"Kirulapone BDM 01","address":"22, Edmenton Road, Kirulapone"},{"latitude":"6.913064","longitude":"79.877741","name":"Borella BDM 01","address":"No. 53\/1, D S Senanayake Mawatha, Colombo 08"},{"latitude":"6.9946724","longitude":"79.8754867","name":"Hendala BDM 01","address":"No.28, Elakanda Road, Hendala, Wattala"},{"latitude":"7.249218","longitude":"80.130587","name":"Mirigama BDM 01","address":"No.89, Giriulla Road, Mirigama"},{"latitude":"7.165601","longitude":"79.883444","name":"Katunayake BDM 01","address":"No. 510\/2 Dhammaloka Mw, Awariwatte, Katunayake"},{"latitude":"7.496931","longitude":"79.840231","name":"Madampe BDM 01","address":"No.29,Station Road, New Town, Madampe"},{"latitude":"8.047439","longitude":"79.737315","name":"Norochchole BDM 01","address":"Kalpitiya Road, Norochchole"},{"latitude":"6.849678","longitude":"79.923242","name":"Wijerama BDM 01","address":"594, Highlevel Road, Wijerama, Nugegoda"},{"latitude":"8.365837","longitude":"81.00325","name":"Kantale BDM 01","address":"No.24, Main Street, Kantale"},{"latitude":"6.784818","longitude":"79.895541","name":"Moratumulla BDM 01","address":"No.68, Sri Premarathna Mw, Moratumulla"},{"latitude":"6.473193","longitude":"79.984291","name":"Beruwala BDM 01","address":"No.187, Galle Road, Beruwala"},{"latitude":"6.946504","longitude":"79.85818","name":"Jampettah BDM 01","address":"No.97, Jampettah Street, Colombo 13"},{"latitude":"6.433363","longitude":"79.997874","name":"Aluthgama BDM 01","address":"No.303, Galle Road, Aluthgama"},{"latitude":"7.417222","longitude":"81.824321","name":"Kalmunai BDM 01","address":"30A,\u00a0Batticaloa\u00a0Road ,Kalmunai"},{"latitude":"7.291206","longitude":"81.673337","name":"Ampara BDM 01","address":"Siyarata Building, D S Senanayake Street, Ampara"},{"latitude":"7.362215","longitude":"81.804554","name":"Samanthurai BDM 01","address":"No.351\/3B, Police Station Road, Samanthurai"},{"latitude":"6.100389","longitude":"80.478255","name":"Akuressa BDM 01","address":"No.18, New Wanigasekara Building, Kamburupitiya Road, Akuressa"},{"latitude":"6.302779","longitude":"80.635062","name":"Urubokka BDM 01","address":"Main Street, Urubokka"},{"latitude":"6.729352","longitude":"81.101595","name":"Wellawaya BDM 01","address":"No.70, Kumaradasa Mawatha, Wellawaya"},{"latitude":"6.760701","longitude":"81.248745","name":"Buttala BDM 01","address":"No.54, Raja Mawatha, Buttala"},{"latitude":"6.920903","longitude":"79.862199","name":"Nawam Mawatha BDM 01","address":"46\/38, Building, Nawam Mw, Colombo 02"},{"latitude":"7.724761","longitude":"81.691151","name":"Kattankudi BDM 01","address":"No.183, 185, Main Street, Kattankudi"},{"latitude":"7.518159","longitude":"81.787178","name":"Kaluwanchikudi BDM 01","address":"Main Street, Kaluwanchikudi"},{"latitude":"6.905269","longitude":"80.911005","name":"Chenkaladi BDM 01","address":"No.351, Trico Road, Eravur, Chenkalady"},{"latitude":"6.889861","longitude":"79.875533","name":"Lanka Hospital BDM 01","address":"No.578, Elvitigala Mawatha, Colombo 05"},{"latitude":"7.298377","longitude":"80.734851","name":"Digana BDM 01","address":"No.92\/1, New Road, Digana, Rajawella"},{"latitude":"7.279187","longitude":"80.679598","name":"Kundasale BDM 01","address":"No.67\/19, Digana Road, Naththarampotha, Kundasale"},{"latitude":"7.264877","longitude":"80.557663","name":"Pilimatawala BDM 01","address":"No.175\/D, Colombo Road, Pilimatalawa"},{"latitude":"6.124252","longitude":"81.12476","name":"Ambalantota BDM 01","address":"No.73, Main Street, Ambalantota"},{"latitude":"6.124256","longitude":"81.124771","name":"Hambantota BDM 01","address":"No.47, Wilmot Street, Hambantota"},{"latitude":"6.953261","longitude":"79.918798","name":"Peliyagoda BDM 01","address":"No.182\u00b8 Negombo Road, Peliyagoda"},{"latitude":"7.090963","longitude":"79.997195","name":"Ekala BDM 01","address":"No. 115\/1 Minuwangoda Road, Ekala"},{"latitude":"6.027291","longitude":"80.794739","name":"Tangalle BDM 01","address":"No.90, Main Street Tangalle"},{"latitude":"6.877417","longitude":"79.869525","name":"Pamankada BDM 01","address":"455,477 Havelock Road , Colombo 05"},{"latitude":"6.891387","longitude":"79.86277","name":"Thimbirigasyaya BDM 01","address":"No.138B, Havelock Road, Colombo 05"},{"latitude":"6.067643","longitude":"80.227762","name":"Karapitiya BDM 01","address":"NO.598-N, Hirimbira Road , Karapitiya"},{"latitude":"7.056521","longitude":"80.53527","name":"Nawalapitiya BDM 01","address":"No.68, Gampola Road, Nawalapitiya"},{"latitude":"","longitude":"","name":"","address":""},{"latitude":"","longitude":"","name":"","address":""},{"latitude":"","longitude":"","name":"","address":""},{"latitude":"","longitude":"","name":"","address":""}]